FMT,128,89,FMT,BBnNZ,Type,Length,Name,Format,Columns
FMT,0,74,MODE,QMBZ,time_boot_ms,Mode,ModeNum,Info
FMT,0,136,MSG,QZZ,time_boot_ms,Message,Info
FMT,1,39,SYS_STATUS,QIIIHHhbHHHHHH,time_boot_ms,onboard_control_sensors_present,onboard_control_sensors_enabled,onboard_control_sensors_health,load,voltage_battery,current_battery,battery_remaining,drop_rate_comm,errors_comm,errors_count1,errors_count2,errors_count3,errors_count4
FMT,125,14,POWER_STATUS,QHHH,time_boot_ms,Vcc,Vservo,flags
FMT,152,16,MEMINFO,QHHI,time_boot_ms,brkval,freemem,freemem32
FMT,42,10,MISSION_CURRENT,QH,time_boot_ms,seq
FMT,24,58,GPS_RAW_INT,QQBiiiHHHHBiIIII,time_boot_ms,time_usec,fix_type,lat,lon,alt,eph,epv,vel,cog,satellites_visible,alt_ellipsoid,h_acc,v_acc,vel_acc,hdg_acc
FMT,62,34,NAV_CONTROLLER_OUTPUT,QffhhHfff,time_boot_ms,nav_roll,nav_pitch,nav_bearing,target_bearing,wp_dist,alt_error,aspd_error,xtrack_error
FMT,36,45,SERVO_OUTPUT_RAW,QIBHHHHHHHHHHHHHHHH,time_boot_ms,time_usec,port,servo1_raw,servo2_raw,servo3_raw,servo4_raw,servo5_raw,servo6_raw,servo7_raw,servo8_raw,servo9_raw,servo10_raw,servo11_raw,servo12_raw,servo13_raw,servo14_raw,servo15_raw,servo16_raw
FMT,35,22,RC_CHANNELS_RAW,IBHHHHHHHHB,time_boot_ms,port,chan1_raw,chan2_raw,chan3_raw,chan4_raw,chan5_raw,chan6_raw,chan7_raw,chan8_raw,rssi
FMT,65,42,RC_CHANNELS,IBHHHHHHHHHHHHHHHHHHB,time_boot_ms,chancount,chan1_raw,chan2_raw,chan3_raw,chan4_raw,chan5_raw,chan6_raw,chan7_raw,chan8_raw,chan9_raw,chan10_raw,chan11_raw,chan12_raw,chan13_raw,chan14_raw,chan15_raw,chan16_raw,chan17_raw,chan18_raw,rssi
FMT,163,36,AHRS,Qfffffff,time_boot_ms,omegaIx,omegaIy,omegaIz,accel_weight,renorm_val,error_rp,error_yaw
FMT,165,11,HWSTATUS,QHB,time_boot_ms,Vcc,I2Cerr
FMT,2,12,SYSTEM_TIME,QI,time_unix_usec,time_boot_ms
FMT,147,49,BATTERY_STATUS,QBBBhHHHHHHHHHHhiibiB,time_boot_ms,id,battery_function,type,temperature,voltages-0,voltages-1,voltages-2,voltages-3,voltages-4,voltages-5,voltages-6,voltages-7,voltages-8,voltages-9,current_battery,current_consumed,energy_consumed,battery_remaining,time_remaining,charge_state
FMT,158,22,MOUNT_STATUS,QBBiii,time_boot_ms,target_system,target_component,pointing_a,pointing_b,pointing_c
FMT,193,34,EKF_STATUS_REPORT,QHffffff,time_boot_ms,flags,velocity_variance,pos_horiz_variance,pos_vert_variance,compass_variance,terrain_alt_variance,airspeed_variance
FMT,241,40,VIBRATION,QQfffIII,time_boot_ms,time_usec,vibration_x,vibration_y,vibration_z,clipping_0,clipping_1,clipping_2
FMT,30,28,ATTITUDE,Iffffff,time_boot_ms,roll,pitch,yaw,rollspeed,pitchspeed,yawspeed
FMT,178,32,AHRS2,Qffffii,time_boot_ms,roll,pitch,yaw,altitude,lat,lng
FMT,182,48,AHRS3,Qffffiiffff,time_boot_ms,roll,pitch,yaw,altitude,lat,lng,v1,v2,v3,v4
FMT,74,28,VFR_HUD,QffhHff,time_boot_ms,airspeed,groundspeed,heading,throttle,alt,climb
FMT,27,34,RAW_IMU,QQhhhhhhhhh,time_boot_ms,time_usec,xacc,yacc,zacc,xgyro,ygyro,zgyro,xmag,ymag,zmag
FMT,116,22,SCALED_IMU2,Ihhhhhhhhh,time_boot_ms,xacc,yacc,zacc,xgyro,ygyro,zgyro,xmag,ymag,zmag
FMT,129,22,SCALED_IMU3,Ihhhhhhhhh,time_boot_ms,xacc,yacc,zacc,xgyro,ygyro,zgyro,xmag,ymag,zmag
FMT,29,14,SCALED_PRESSURE,Iffh,time_boot_ms,press_abs,press_diff,temperature
FMT,137,14,SCALED_PRESSURE2,Iffh,time_boot_ms,press_abs,press_diff,temperature
FMT,33,28,GLOBAL_POSITION_INT,IiiiihhhH,time_boot_ms,lat,lon,alt,relative_alt,vx,vy,vz,hdg
FMT,0,17,HEARTBEAT,QBBBIBB,time_boot_ms,type,autopilot,base_mode,custom_mode,system_status,mavlink_version
FMT,148,86,AUTOPILOT_VERSION,QQIIIIBBBBBBBBBBBBBBBBBBBBBBBBHHQBBBBBBBBBBBBBBBBBB,time_boot_ms,capabilities,flight_sw_version,middleware_sw_version,os_sw_version,board_version,flight_custom_version-0,flight_custom_version-1,flight_custom_version-2,flight_custom_version-3,flight_custom_version-4,flight_custom_version-5,flight_custom_version-6,flight_custom_version-7,middleware_custom_version-0,middleware_custom_version-1,middleware_custom_version-2,middleware_custom_version-3,middleware_custom_version-4,middleware_custom_version-5,middleware_custom_version-6,middleware_custom_version-7,os_custom_version-0,os_custom_version-1,os_custom_version-2,os_custom_version-3,os_custom_version-4,os_custom_version-5,os_custom_version-6,os_custom_version-7,vendor_id,product_id,uid,uid2-0,uid2-1,uid2-2,uid2-3,uid2-4,uid2-5,uid2-6,uid2-7,uid2-8,uid2-9,uid2-10,uid2-11,uid2-12,uid2-13,uid2-14,uid2-15,uid2-16,uid2-17
FMT,77,11,COMMAND_ACK,QHB,time_boot_ms,command,result
FMT,44,13,MISSION_COUNT,QBBHB,time_boot_ms,target_system,target_component,count,mission_type
FMT,253,73,STATUSTEXT,QBZ,time_boot_ms,severity,text
FMT,22,81,PARAM_VALUE,QZfBHH,time_boot_ms,param_id,param_value,param_type,param_count,param_index
FMT,73,46,MISSION_ITEM_INT,QBBHBHBBffffiifB,time_boot_ms,target_system,target_component,seq,frame,command,current,autocontinue,param1,param2,param3,param4,x,y,z,mission_type
FMT,150,50,SENSOR_OFFSETS,Qhhhfiiffffff,time_boot_ms,mag_ofs_x,mag_ofs_y,mag_ofs_z,mag_declination,raw_press,raw_temp,gyro_cal_x,gyro_cal_y,gyro_cal_z,accel_cal_x,accel_cal_y,accel_cal_z
SYS_STATUS,0,56687663,39853103,56687663,511,90,21,97,0,0,0,0,0,0
POWER_STATUS,0,4887,70,4
MEMINFO,0,0,41488,39845892
MISSION_CURRENT,0,1
GPS_RAW_INT,0,0,1,0,0,-17000,9999,9999,0,0,0,97,0,0,0,0
NAV_CONTROLLER_OUTPUT,0,0.46055445075035095,0.8778104186058044,-47,0,0,-3.3006603717803955,0,0
SERVO_OUTPUT_RAW,0,422064853,0,982,982,982,982,0,0,0,0,255,0,0,256,24832,0,0,0
RC_CHANNELS_RAW,4717032,0,0,0,0,0,0,0,0,0,0
RC_CHANNELS,4717032,0,0,0,0,0,0,0,0,0,0,0,0,0,0,0,0,0,0,0,0
AHRS,4717032,-0.00017329964612144977,4.006013841717504e-5,0.00018193760479334742,0,0,0.0008924502180889249,0.005881037563085556
HWSTATUS,4717032,4887,0
BATTERY_STATUS,4717032,0,0,0,32767,65535,65535,65535,65535,65535,65535,65535,65535,65535,65535,21,275,-1,97,0,0
MOUNT_STATUS,4717032,0,0,-25,-96,4772
EKF_STATUS_REPORT,4717032,485,0,0.0012815623776987195,0.0018710861913859844,0.0010301520815119147,0.004200079012662172,nan
VIBRATION,4717032,4717032669,0.021049102768301964,0.02272152155637741,0.03245743736624718,0,0,0
ATTITUDE,4717072,0.008042475208640099,0.015302740968763828,-0.8328661918640137,0.001771806855686009,-9.024646715261042e-5,-0.002184131881222129
AHRS2,4717072,0.013384989462792873,0.035369813442230225,-0.7910795211791992,0,0,0
AHRS3,4717072,0.008042475208640099,0.015302740968763828,-0.8328661918640137,0,0,0,0,0,0,0
VFR_HUD,4717072,0,0.00828411616384983,312,0,3.299999952316284,0
RAW_IMU,4717072,422164915,19,3,-1051,1,1,0,200,236,751
SCALED_IMU2,4717132,91,2,-886,2,1,2,139,152,597
SCALED_IMU3,4717132,40,-2,-1004,0,2,2,349,-15,289
SCALED_PRESSURE,4717132,965.8351440429688,-0.3540624976158142,4954
SCALED_PRESSURE2,4717132,965.8959350585938,-0.134765625,4443
ATTITUDE,4717171,0.00796556007117033,0.015351195819675922,-0.8328661322593689,-0.0012602584902197123,0.0007971943123266101,0.0010893677826970816
AHRS2,4717171,0.01340323407202959,0.03548521548509598,-0.7910273671150208,0,0,0
AHRS3,4717171,0.00796556007117033,0.015351195819675922,-0.8328661322593689,0,0,0,0,0,0,0
VFR_HUD,4717171,0,0.007927865721285343,312,0,3.299999952316284,0
GLOBAL_POSITION_INT,4717191,0,0,3300,3300,0,0,0,31229
ATTITUDE,4717272,0.007951191626489162,0.015282628126442432,-0.8329030871391296,0.0009797937236726284,0.0017808455741032958,-0.00038525299169123173
AHRS2,4717272,0.013410880230367184,0.03531135246157646,-0.7910838723182678,0,0,0
AHRS3,4717272,0.007951191626489162,0.015282628126442432,-0.8329030871391296,0,0,0,0,0,0,0
VFR_HUD,4717272,0,0.008073993027210236,312,0,3.299999952316284,0
ATTITUDE,4717372,0.00792217068374157,0.015221686102449894,-0.8329405784606934,-0.0003990362456534058,-0.001606971607543528,-0.0006550994585268199
AHRS2,4717372,0.013407653197646141,0.03530656546354294,-0.7909403443336487,0,0,0
AHRS3,4717372,0.00792217068374157,0.015221686102449894,-0.8329405784606934,0,0,0,0,0,0,0
VFR_HUD,4717372,0,0.008433361537754536,312,0,3.299999952316284,0
ATTITUDE,4717472,0.007952961139380932,0.015251447446644306,-0.8329464197158813,-0.0007507622940465808,-0.00024285184917971492,-0.0005297432653605938
AHRS2,4717472,0.013444035314023495,0.035262882709503174,-0.7908306121826172,0,0,0
AHRS3,4717472,0.007952961139380932,0.015251447446644306,-0.8329464197158813,0,0,0,0,0,0,0
VFR_HUD,4717472,0,0.00824083760380745,312,0,3.299999952316284,0
GLOBAL_POSITION_INT,4717512,0,0,3300,3300,0,0,0,31228
SYS_STATUS,4717512,56687663,39853103,56687663,542,76,19,97,0,0,0,0,0,0
POWER_STATUS,4717512,4888,70,4
MEMINFO,4717512,0,41488,39845892
MISSION_CURRENT,4717512,1
GPS_RAW_INT,4717512,0,1,0,0,-17000,9999,9999,0,0,0,97,0,0,0,0
NAV_CONTROLLER_OUTPUT,4717512,0.45659467577934265,0.8727291822433472,-47,0,0,-3.3019158840179443,0,0
SERVO_OUTPUT_RAW,4717512,422566138,0,982,982,982,982,0,0,0,0,255,0,0,256,24832,0,0,0
RC_CHANNELS_RAW,4717533,0,0,0,0,0,0,0,0,0,0
RC_CHANNELS,4717533,0,0,0,0,0,0,0,0,0,0,0,0,0,0,0,0,0,0,0,0
AHRS,4717533,-0.00017235898121725768,3.975455183535814e-5,0.00018109288066625595,0,0,0.000768013356719166,0.0069386158138513565
HWSTATUS,4717533,4888,0
BATTERY_STATUS,4717533,0,0,0,32767,65535,65535,65535,65535,65535,65535,65535,65535,65535,65535,19,276,-1,97,0,0
MOUNT_STATUS,4717533,0,0,-24,-95,4772
EKF_STATUS_REPORT,4717533,485,0,0.0013826530193910003,0.005415146239101887,0.01643017865717411,0.0031908710952848196,nan
VIBRATION,4717533,4717534087,0.022000541910529137,0.01869388110935688,0.02992844395339489,0,0,0
ATTITUDE,4717573,0.007967231795191765,0.015312072820961475,-0.832907497882843,0.00048696226440370083,0.0023534693755209446,-0.0006087014335207641
AHRS2,4717573,0.013428941369056702,0.035305798053741455,-0.7906937003135681,0,0,0
AHRS3,4717573,0.007967231795191765,0.015312072820961475,-0.832907497882843,0,0,0,0,0,0,0
VFR_HUD,4717573,0,0.008395898155868053,312,0,3.299999952316284,0
RAW_IMU,4717573,422665740,19,5,-1055,2,0,-1,199,233,747
SCALED_IMU2,4717633,94,1,-880,1,0,0,139,152,598
SCALED_IMU3,4717633,39,-1,-1009,1,0,0,348,-17,285
SCALED_PRESSURE,4717633,965.8416748046875,-0.3474999964237213,4955
SCALED_PRESSURE2,4717633,965.9073486328125,-0.12335937470197678,4444
ATTITUDE,4717672,0.007967613637447357,0.015261123888194561,-0.8329270482063293,-0.0016743880696594715,-0.001828717184253037,0.00299715343862772
AHRS2,4717672,0.013435695320367813,0.03532358258962631,-0.7905992269515991,0,0,0
AHRS3,4717672,0.007967613637447357,0.015261123888194561,-0.8329270482063293,0,0,0,0,0,0,0
VFR_HUD,4717672,0,0.007663053926080465,312,0,3.2899999618530273,0
ATTITUDE,4717773,0.007982411421835423,0.015384719707071781,-0.8329802751541138,0.0005363810923881829,0.0006865790928713977,-0.0010989548172801733
AHRS2,4717773,0.013490958139300346,0.03544538840651512,-0.7906241416931152,0,0,0
AHRS3,4717773,0.007982411421835423,0.015384719707071781,-0.8329802751541138,0,0,0,0,0,0,0
VFR_HUD,4717773,0,0.008115150965750217,312,0,3.2899999618530273,0
GLOBAL_POSITION_INT,4717833,0,0,3290,3290,0,0,0,31228
ATTITUDE,4717873,0.008008807897567749,0.015294724144041538,-0.8328855037689209,0.00032933527836576104,0.002055996796116233,0.001398576539941132
AHRS2,4717873,0.013461397029459476,0.035423167049884796,-0.7904513478279114,0,0,0
AHRS3,4717873,0.008008807897567749,0.015294724144041538,-0.8328855037689209,0,0,0,0,0,0,0
VFR_HUD,4717873,0,0.007387684658169746,312,0,3.2899999618530273,0
ATTITUDE,4717973,0.008003538474440575,0.015340049751102924,-0.8330307006835938,-0.0004550998564809561,-0.002017031889408827,-0.0016647069714963436
AHRS2,4717973,0.013436037115752697,0.03556109219789505,-0.7905480265617371,0,0,0
AHRS3,4717973,0.008003538474440575,0.015340049751102924,-0.8330307006835938,0,0,0,0,0,0,0
VFR_HUD,4717973,0,0.007667143829166889,312,0,3.2899999618530273,0
HEARTBEAT,4717973,2,3,81,0,3,3
MODE,4717973,0,0,Generated from heartbeat
SYS_STATUS,4717973,56687663,39853103,56687663,530,89,21,97,0,0,0,0,0,0
POWER_STATUS,4717973,4888,70,4
MEMINFO,4717973,0,41488,39845892
MISSION_CURRENT,4717973,1
GPS_RAW_INT,4717973,0,1,0,0,-17000,9999,9999,0,0,0,97,0,0,0,0
NAV_CONTROLLER_OUTPUT,4717973,0.45933759212493896,0.8775928020477295,-47,0,0,-3.2922019958496094,0,0
SERVO_OUTPUT_RAW,4717973,423067122,0,982,982,982,982,0,0,0,0,255,0,0,256,24832,0,0,0
RC_CHANNELS_RAW,4718034,0,0,0,0,0,0,0,0,0,0
RC_CHANNELS,4718034,0,0,0,0,0,0,0,0,0,0,0,0,0,0,0,0,0,0,0,0
AHRS,4718034,-0.00017178499547298998,3.954632848035544e-5,0.00018074682157021016,0,0,0.000678636715747416,0.004248356446623802
HWSTATUS,4718034,4888,0
BATTERY_STATUS,4718034,0,0,0,32767,65535,65535,65535,65535,65535,65535,65535,65535,65535,65535,21,276,-1,97,0,0
MOUNT_STATUS,4718034,0,0,-24,-95,4773
EKF_STATUS_REPORT,4718034,485,0,0.0014138099504634738,0.009228675626218319,0.009169615805149078,0.0005212373798713088,nan
VIBRATION,4718034,4718035118,0.019906822592020035,0.020971057936549187,0.034931521862745285,0,0,0
ATTITUDE,4718074,0.008021085523068905,0.01540395151823759,-0.832947850227356,0.000915896671358496,0.0023883769754320383,-7.832515984773636e-5
AHRS2,4718074,0.013442900031805038,0.035595107823610306,-0.7904340028762817,0,0,0
AHRS3,4718074,0.008021085523068905,0.01540395151823759,-0.832947850227356,0,0,0,0,0,0,0
VFR_HUD,4718074,0,0.008222007192671299,312,0,3.2899999618530273,0
RAW_IMU,4718074,423166853,18,4,-1051,0,-2,0,203,229,749
SCALED_IMU2,4718134,92,-10,-886,3,0,0,139,152,595
SCALED_IMU3,4718134,38,0,-1004,0,-1,0,349,-16,284
SCALED_PRESSURE,4718134,965.8062133789062,-0.3829687535762787,4954
SCALED_PRESSURE2,4718134,965.9124145507812,-0.11828124523162842,4444
GLOBAL_POSITION_INT,4718153,0,0,3280,3280,0,0,0,31228
ATTITUDE,4718173,0.0080194603651762,0.015408472158014774,-0.8329352736473083,0.00018221608479507267,0.002363227540627122,0.001061057555489242
AHRS2,4718173,0.013443528674542904,0.035630665719509125,-0.7903562784194946,0,0,0
AHRS3,4718173,0.0080194603651762,0.015408472158014774,-0.8329352736473083,0,0,0,0,0,0,0
VFR_HUD,4718173,0,0.008035735227167606,312,0,3.2799999713897705,0
ATTITUDE,4718273,0.008014054968953133,0.015466318465769291,-0.8329185843467712,-0.002180691808462143,-0.0020891984459012747,-0.0012950848322361708
AHRS2,4718273,0.013418704271316528,0.03564352169632912,-0.790199875831604,0,0,0
AHRS3,4718273,0.008014054968953133,0.015466318465769291,-0.8329185843467712,0,0,0,0,0,0,0
VFR_HUD,4718273,0,0.008021512068808079,312,0,3.2799999713897705,0
ATTITUDE,4718374,0.008052928373217583,0.01554494071751833,-0.8328671455383301,-0.0025597610510885715,0.0002750349522102624,0.015532189048826694
AHRS2,4718374,0.013487356714904308,0.035639215260744095,-0.7902246117591858,0,0,0
AHRS3,4718374,0.008052928373217583,0.01554494071751833,-0.8328671455383301,0,0,0,0,0,0,0
VFR_HUD,4718374,0,0.004218723624944687,312,0,3.2799999713897705,0
GLOBAL_POSITION_INT,4718474,0,0,3280,3280,-1,0,0,31225
ATTITUDE,4718474,0.007977388799190521,0.015465899370610714,-0.8334534764289856,7.818529411451891e-5,-0.001465262845158577,-0.025359418243169785
AHRS2,4718474,0.013451190665364265,0.03544735163450241,-0.7909417152404785,0,0,0
AHRS3,4718474,0.007977388799190521,0.015465899370610714,-0.8334534764289856,0,0,0,0,0,0,0
VFR_HUD,4718474,0,0.011388787068426609,312,0,3.2799999713897705,0
SYS_STATUS,4718474,56687663,39853103,56687663,522,80,21,97,0,0,0,0,0,0
POWER_STATUS,4718474,4891,70,4
MEMINFO,4718474,0,41488,39845892
MISSION_CURRENT,4718474,1
GPS_RAW_INT,4718474,0,1,0,0,-17000,9999,9999,0,0,0,97,0,0,0,0
NAV_CONTROLLER_OUTPUT,4718474,0.4612981379032135,0.8903677463531494,-47,0,0,-3.2886641025543213,0,0
SERVO_OUTPUT_RAW,4718474,423567829,0,982,982,982,982,0,0,0,0,255,0,0,256,24832,0,0,0
RC_CHANNELS_RAW,4718535,0,0,0,0,0,0,0,0,0,0
RC_CHANNELS,4718535,0,0,0,0,0,0,0,0,0,0,0,0,0,0,0,0,0,0,0,0
AHRS,4718535,-0.00017274166748393327,3.971568003180437e-5,0.00018186841043643653,0,0,0.0008153151720762253,0.0063439724035561085
HWSTATUS,4718535,4891,0
BATTERY_STATUS,4718535,0,0,0,32767,65535,65535,65535,65535,65535,65535,65535,65535,65535,65535,21,276,-1,97,0,0
MOUNT_STATUS,4718535,0,0,-25,-96,4777
EKF_STATUS_REPORT,4718535,485,0,0.0013967391569167376,0.005714751780033112,0.0188891664147377,0.004547314718365669,nan
VIBRATION,4718535,4718535545,0.028963740915060043,0.07594332098960876,0.045032721012830734,0,0,0
ATTITUDE,4718574,0.00811854563653469,0.015536963008344173,-0.8321032524108887,0.00202001491561532,0.0004955167532898486,0.029433859512209892
AHRS2,4718574,0.01359510887414217,0.03543242812156677,-0.7895954847335815,0,0,0
AHRS3,4718574,0.00811854563653469,0.015536963008344173,-0.8321032524108887,0,0,0,0,0,0,0
VFR_HUD,4718574,0,0.0056445300579071045,312,0,3.2799999713897705,0
RAW_IMU,4718574,423668523,19,0,-1056,1,0,-29,203,228,743
SCALED_IMU2,4718635,98,0,-886,1,-3,-28,139,152,595
SCALED_IMU3,4718635,39,-6,-1012,1,0,-27,347,-17,283
SCALED_PRESSURE,4718636,965.8081665039062,-0.3810156285762787,4954
SCALED_PRESSURE2,4718636,965.8778686523438,-0.15281249582767487,4443
ATTITUDE,4718675,0.007903896272182465,0.015538490377366543,-0.8337324857711792,-0.0034254256170243025,0.0016401837347075343,-0.020821737125515938
AHRS2,4718675,0.013439232483506203,0.03532150760293007,-0.7911309599876404,0,0,0
AHRS3,4718675,0.007903896272182465,0.015538490377366543,-0.8337324857711792,0,0,0,0,0,0,0
VFR_HUD,4718675,0,0.007687850389629602,312,0,3.2799999713897705,0
ATTITUDE,4718775,0.008160330355167389,0.015401453711092472,-0.8322283029556274,0.002797209657728672,-0.004106227308511734,0.024846812710165977
AHRS2,4718775,0.013628058135509491,0.03517869859933853,-0.7896153330802917,0,0,0
AHRS3,4718775,0.008160330355167389,0.015401453711092472,-0.8322283029556274,0,0,0,0,0,0,0
VFR_HUD,4718775,0,0.005962783470749855,312,0,3.2799999713897705,0
GLOBAL_POSITION_INT,4718795,0,0,3280,3280,0,0,0,31233
ATTITUDE,4718875,0.007900569587945938,0.01556012686342001,-0.8340877890586853,-0.0024135077837854624,0.004648191854357719,-0.024157479405403137
AHRS2,4718875,0.013376882299780846,0.03516025468707085,-0.791462242603302,0,0,0
AHRS3,4718875,0.007900569587945938,0.01556012686342001,-0.8340877890586853,0,0,0,0,0,0,0
VFR_HUD,4718875,0,0.008133110590279102,312,0,3.2799999713897705,0
ATTITUDE,4718977,0.00796318519860506,0.01525114569813013,-0.8321808576583862,-0.0025309007614851,-0.00901675783097744,0.012789323925971985
AHRS2,4718977,0.01349420752376318,0.03478666767477989,-0.7896605134010315,0,0,0
AHRS3,4718977,0.00796318519860506,0.01525114569813013,-0.8321808576583862,0,0,0,0,0,0,0
VFR_HUD,4718977,0,0.008216766640543938,312,0,3.2799999713897705,0
HEARTBEAT,4718977,2,3,81,0,3,3
SYS_STATUS,4718977,56687663,39853103,56687663,523,103,23,97,0,0,0,0,0,0
POWER_STATUS,4718977,4874,70,4
MEMINFO,4718977,0,41488,39845892
MISSION_CURRENT,4718977,1
GPS_RAW_INT,4718977,0,1,0,0,-17000,9999,9999,0,0,0,97,0,0,0,0
NAV_CONTROLLER_OUTPUT,4718977,0.4524206519126892,0.8749227523803711,-47,0,0,-3.2876884937286377,0,0
SERVO_OUTPUT_RAW,4718977,424070766,0,982,982,982,982,0,0,0,0,255,0,0,256,24832,0,0,0
RC_CHANNELS_RAW,4719038,0,0,0,0,0,0,0,0,0,0
RC_CHANNELS,4719038,0,0,0,0,0,0,0,0,0,0,0,0,0,0,0,0,0,0,0,0
AHRS,4719038,-0.00017171680519822985,3.943790579796769e-5,0.00018114392878487706,0,0,0.0007459425833076239,0.006797437556087971
HWSTATUS,4719038,4874,0
BATTERY_STATUS,4719038,0,0,0,32767,65535,65535,65535,65535,65535,65535,65535,65535,65535,65535,23,276,-1,97,0,0
MOUNT_STATUS,4719038,0,0,-25,-95,4773
EKF_STATUS_REPORT,4719038,485,0,0.0013980783987790346,0.00495748408138752,0.006276474334299564,0.0019271142082288861,nan
VIBRATION,4719038,4719038680,0.04145912453532219,0.06748906522989273,0.06273884326219559,0,0,0
ATTITUDE,4719077,0.00795075111091137,0.015569179318845272,-0.8339914083480835,0.0037570742424577475,0.0077239638194441795,-0.0071540349163115025
AHRS2,4719077,0.01346457190811634,0.034945350140333176,-0.7913000583648682,0,0,0
AHRS3,4719077,0.00795075111091137,0.015569179318845272,-0.8339914083480835,0,0,0,0,0,0,0
VFR_HUD,4719077,0,0.005903935059905052,312,0,3.2799999713897705,0
GLOBAL_POSITION_INT,4719117,0,0,3280,3280,0,0,0,31228
RAW_IMU,4719117,424170382,15,-9,-1055,0,-7,26,194,227,748
SCALED_IMU2,4719137,97,-12,-891,-3,-9,26,139,152,596
SCALED_IMU3,4719137,38,-17,-1011,0,-7,26,350,-17,286
SCALED_PRESSURE,4719137,965.8286743164062,-0.36054685711860657,4954
SCALED_PRESSURE2,4719137,965.9364624023438,-0.09421874582767487,4444
ATTITUDE,4719177,0.007918843999505043,0.01528355572372675,-0.832517683506012,-0.0006327050505205989,-0.003591180080547929,-0.009368255734443665
AHRS2,4719177,0.013392281718552113,0.03456457331776619,-0.7898378372192383,0,0,0
AHRS3,4719177,0.007918843999505043,0.01528355572372675,-0.832517683506012,0,0,0,0,0,0,0
VFR_HUD,4719177,0,0.01226587314158678,312,0,3.2899999618530273,0
ATTITUDE,4719277,0.007910292595624924,0.015474856831133366,-0.8332912921905518,0.007415860891342163,0.003746743081137538,0.00675930455327034
AHRS2,4719277,0.013408638536930084,0.0347004234790802,-0.7906554937362671,0,0,0
AHRS3,4719277,0.007910292595624924,0.015474856831133366,-0.8332912921905518,0,0,0,0,0,0,0
VFR_HUD,4719277,0,0.004221753217279911,312,0,3.2899999618530273,0
ATTITUDE,4719378,0.007866531610488892,0.015269075520336628,-0.8331055045127869,-0.008327890187501907,-0.0056266882456839085,-0.007047141436487436
AHRS2,4719378,0.013355303555727005,0.03448634222149849,-0.7905730605125427,0,0,0
AHRS3,4719378,0.007866531610488892,0.015269075520336628,-0.8331055045127869,0,0,0,0,0,0,0
VFR_HUD,4719378,0,0.008647267706692219,312,0,3.2899999618530273,0
GLOBAL_POSITION_INT,4719439,0,0,3290,3290,0,0,0,31227
SCALED_IMU2,5317553,93,-1,-875,1,1,0,138,152,596
SCALED_IMU3,5317553,40,-4,-1006,-1,1,0,348,-14,284
SCALED_PRESSURE,5317553,965.8478393554688,-0.34132811427116394,4958
SCALED_PRESSURE2,5317553,965.9112548828125,-0.11945312470197678,4446
AUTOPILOT_VERSION,5317553,7119,50661375,0,0,0,98,49,49,99,54,97,102,51,98,53,51,53,102,57,55,52,49,98,99,97,101,57,48,98,0,0,0,0,0,0,0,0,0,0,0,0,0,0,0,0,0,0,0,0,0
ATTITUDE,5317597,0.009175695478916168,0.015164005570113659,-0.8334745168685913,0.0006512976251542568,-0.00010239346011076123,0.00017025921260938048
AHRS2,5317597,0.014941572211682796,0.03568423166871071,-0.7891213297843933,0,0,0
AHRS3,5317597,0.009175695478916168,0.015164005570113659,-0.8334745168685913,0,0,0,0,0,0,0
VFR_HUD,5317597,0,0.003622660879045725,312,0,3.18999981880188,0.019999999552965164
GLOBAL_POSITION_INT,5317697,0,0,3190,3190,0,0,2,31225
ATTITUDE,5317697,0.009153347462415695,0.015131562016904354,-0.8334288001060486,-0.00017173711967188865,0.00043457967694848776,-0.0007425238727591932
AHRS2,5317697,0.014870546758174896,0.03566690534353256,-0.7891598343849182,0,0,0
AHRS3,5317697,0.009153347462415695,0.015131562016904354,-0.8334288001060486,0,0,0,0,0,0,0
VFR_HUD,5317697,0,0.0036666467785835266,312,0,3.18999981880188,0.019999999552965164
ATTITUDE,5317798,0.009130756370723248,0.015124465338885784,-0.8334789276123047,0.00022524927044287324,0.0005505611188709736,-0.0013331505469977856
AHRS2,5317798,0.014933370053768158,0.03568863496184349,-0.7891100645065308,0,0,0
AHRS3,5317798,0.009130756370723248,0.015124465338885784,-0.8334789276123047,0,0,0,0,0,0,0
VFR_HUD,5317798,0,0.0036788620054721832,312,0,3.18999981880188,0.019999999552965164
ATTITUDE,5317898,0.009119333699345589,0.015167676843702793,-0.8336375951766968,-0.0008052821503952146,0.0011102923890575767,-0.0029495798517018557
AHRS2,5317898,0.014913075603544712,0.03565733879804611,-0.7892730832099915,0,0,0
AHRS3,5317898,0.009119333699345589,0.015167676843702793,-0.8336375951766968,0,0,0,0,0,0,0
VFR_HUD,5317898,0,0.00397366052493453,312,0,3.18999981880188,0.019999999552965164
STATUSTEXT,5317898,6, APM:Copter V3.5.7 (b11c6af3)
MSG,5317898, APM:Copter V3.5.7 (b11c6af3),Generated from statustext
STATUSTEXT,5317898,6, PX4: b535f974 NuttX: 1bcae90b
MSG,5317898, PX4: b535f974 NuttX: 1bcae90b,Generated from statustext
STATUSTEXT,5317898,6, Frame: QUAD
MSG,5317898, Frame: QUAD,Generated from statustext
STATUSTEXT,5317898,6, PX4v3 00300022 31375104 33343537
MSG,5317898, PX4v3 00300022 31375104 33343537,Generated from statustext
SYS_STATUS,5317898,56687663,39853103,56687663,481,78,21,96,0,0,0,0,0,0
POWER_STATUS,5317898,4883,72,4
MEMINFO,5317898,0,41488,39845892
MISSION_CURRENT,5317898,1
GPS_RAW_INT,5317898,0,1,0,0,-17000,9999,9999,0,0,0,3617632,0,0,0,0
NAV_CONTROLLER_OUTPUT,5317898,0.524743378162384,0.8698989152908325,-47,0,0,-3.194753646850586,0,0
SERVO_OUTPUT_RAW,5317898,1022991491,0,982,982,982,982,0,0,0,0,255,0,0,256,24576,14131,0,0
RC_CHANNELS_RAW,5317958,0,0,0,0,0,0,0,0,0,0
RC_CHANNELS,5317958,0,0,0,0,0,0,0,0,0,0,0,0,0,0,0,0,0,0,0,0
AHRS,5317958,-0.00022477874881587923,6.439880235120654e-5,0.00022683857241645455,0,0,0.0004962264210917056,0.007022942416369915
HWSTATUS,5317958,4883,0
BATTERY_STATUS,5317958,0,0,0,32767,65535,65535,65535,65535,65535,65535,65535,65535,65535,65535,21,310,-1,96,0,0
MOUNT_STATUS,5317958,0,0,-19,-99,4777
EKF_STATUS_REPORT,5317958,485,0,0.0004972527967765927,0.004818528890609741,0.014219707809388638,0.01236681453883648,nan
VIBRATION,5317958,5317959500,0.017892252653837204,0.019867226481437683,0.028531694784760475,0,0,0
ATTITUDE,5317998,0.009134836494922638,0.015137027017772198,-0.8337220549583435,-0.0006851557991467416,-0.0019579476211220026,-0.00020495394710451365
AHRS2,5317998,0.014944122172892094,0.03567636013031006,-0.7893291115760803,0,0,0
AHRS3,5317998,0.009134836494922638,0.015137027017772198,-0.8337220549583435,0,0,0,0,0,0,0
VFR_HUD,5317998,0,0.004220600705593824,312,0,3.18999981880188,0.019999999552965164
GLOBAL_POSITION_INT,5318020,0,0,3190,3190,0,0,2,31224
RAW_IMU,5318020,1023091766,19,2,-1053,1,1,3,197,234,744
SCALED_IMU2,5318059,100,0,-891,1,0,1,137,153,595
SCALED_IMU3,5318059,40,-3,-1003,0,0,3,344,36,281
SCALED_PRESSURE,5318059,965.8342895507812,-0.3549218773841858,4957
SCALED_PRESSURE2,5318059,965.9122314453125,-0.1184374988079071,4446
MISSION_ITEM_INT,5318059,252,1,0,0,16,0,1,0,0,0,0,0,0,0,254
HEARTBEAT,5318059,2,3,81,0,3,3
ATTITUDE,5318402,0.009239223785698414,0.015144535340368748,-0.8340064883232117,6.446452607633546e-5,-0.00010394409764558077,-0.0024349517188966274
AHRS2,5318402,0.01499663945287466,0.03551436960697174,-0.7895947098731995,0,0,0
AHRS3,5318402,0.009239223785698414,0.015144535340368748,-0.8340064883232117,0,0,0,0,0,0,0
VFR_HUD,5318402,0,0.003679627552628517,312,0,3.18999981880188,0.019999999552965164
MISSION_ITEM_INT,5318402,252,1,1,3,22,0,1,0,0,0,0,474063480,85124516,75,0
ATTITUDE,5318807,0.009306443855166435,0.015111380256712437,-0.8339715003967285,0.00039806996937841177,-0.0003437408886384219,0.0013268195325508714
AHRS2,5318807,0.015017269179224968,0.035430364310741425,-0.7892968058586121,0,0,0
AHRS3,5318807,0.009306443855166435,0.015111380256712437,-0.8339715003967285,0,0,0,0,0,0,0
VFR_HUD,5318807,0,0.005266014486551285,312,0,3.18999981880188,0.019999999552965164
MISSION_ITEM_INT,5318807,252,1,2,3,16,0,1,0,0,0,0,474057236,85108637,75,0
ATTITUDE,5319209,0.00937248021364212,0.015218672342598438,-0.8339321613311768,-0.0005689862882718444,-0.0003074537089560181,-0.001267810701392591
AHRS2,5319209,0.014934259466826916,0.035422079265117645,-0.7892309427261353,0,0,0
AHRS3,5319209,0.00937248021364212,0.015218672342598438,-0.8339321613311768,0,0,0,0,0,0,0
VFR_HUD,5319209,0,0.005619509145617485,312,0,3.18999981880188,0.019999999552965164
HEARTBEAT,5319209,2,3,81,0,3,3
GLOBAL_POSITION_INT,5319350,0,0,3190,3190,0,0,2,31223
MISSION_ITEM_INT,5319350,252,1,3,3,16,0,1,0,0,0,0,474050011,85095978,72,0
ATTITUDE,5319613,0.009412125684320927,0.015107185579836369,-0.8339189887046814,0.0013497817562893033,-0.0006770309410057962,-0.0006621572538278997
AHRS2,5319613,0.014816234819591045,0.03515501320362091,-0.7892025113105774,0,0,0
AHRS3,5319613,0.009412125684320927,0.015107185579836369,-0.8339189887046814,0,0,0,0,0,0,0
VFR_HUD,5319613,0,0.006764806807041168,312,0,3.18999981880188,0.019999999552965164
MISSION_ITEM_INT,5319613,252,1,4,3,16,0,1,0,0,0,0,474045944,85108155,100,0
SYS_STATUS,5319613,56687663,39853103,56687663,494,82,19,96,0,0,0,0,0,0
POWER_STATUS,5319613,4854,70,4
MEMINFO,5319613,0,41488,39845892
MISSION_CURRENT,5319613,1
GPS_RAW_INT,5319613,0,1,0,0,-17000,9999,9999,0,0,0,33292384,65539,16842752,2621440022,620955205
NAV_CONTROLLER_OUTPUT,5319613,0.5375606417655945,0.8704308271408081,-47,0,0,-3.190955400466919,0,0
SERVO_OUTPUT_RAW,5319613,1025006942,0,982,982,982,982,0,0,0,0,255,0,0,256,24576,64512,769,256
RC_CHANNELS_RAW,5319974,0,0,0,0,0,0,0,0,0,0
RC_CHANNELS,5319974,0,0,0,0,0,0,0,0,0,0,0,0,0,0,0,0,0,0,0,0
AHRS,5319974,-0.0002227493969257921,6.410638161469251e-5,0.00022510011331178248,0,0,0.00045880425022915006,0.006102979648858309
HWSTATUS,5319974,4854,0
BATTERY_STATUS,5319974,0,0,0,32767,65535,65535,65535,65535,65535,65535,65535,65535,65535,65535,19,311,-1,96,0,0
MOUNT_STATUS,5319974,0,0,-18,-100,4779
EKF_STATUS_REPORT,5319974,485,0,0.0009846180910244584,0.008944499306380749,0.01703391969203949,0.007391664665192366,nan
VIBRATION,5319974,5319975072,0.018907085061073303,0.021042682230472565,0.028236661106348038,0,0,0
ATTITUDE,5320015,0.009360102005302906,0.015171666629612446,-0.8339396715164185,1.545375562272966e-5,-0.0006372169591486454,0.001827293075621128
AHRS2,5320015,0.014824843034148216,0.035165656358003616,-0.7893425226211548,0,0,0
AHRS3,5320015,0.009360102005302906,0.015171666629612446,-0.8339396715164185,0,0,0,0,0,0,0
VFR_HUD,5320015,0,0.008045751601457596,312,0,3.18999981880188,0.019999999552965164
RAW_IMU,5320015,1025106951,17,0,-1055,0,0,1,197,237,745
SCALED_IMU2,5320074,92,2,-893,2,2,1,137,152,598
SCALED_IMU3,5320074,38,-4,-1007,-1,0,0,345,-10,284
SCALED_PRESSURE,5320074,965.833251953125,-0.35593748092651367,4958
SCALED_PRESSURE2,5320074,965.9139404296875,-0.11671874672174454,4445
HEARTBEAT,5320074,2,3,81,0,3,3
MISSION_ITEM_INT,5320074,252,1,5,3,16,0,1,0,0,0,0,474048595,85117006,130,0
ATTITUDE,5320417,0.009392144158482552,0.015158035792410374,-0.8339748978614807,-0.00044531101593747735,-0.001477340585552156,0.00021522142924368382
AHRS2,5320417,0.014839474111795425,0.035039424896240234,-0.7894254326820374,0,0,0
AHRS3,5320417,0.009392144158482552,0.015158035792410374,-0.8339748978614807,0,0,0,0,0,0,0
VFR_HUD,5320417,0,0.008148912340402603,312,0,3.179999828338623,0.019999999552965164
GLOBAL_POSITION_INT,5320678,0,0,3180,3180,0,0,2,31222
MISSION_ITEM_INT,5320678,252,1,6,3,16,0,1,0,0,0,0,474053641,85125589,150,254
ATTITUDE,5320819,0.009518326260149479,0.015050294809043407,-0.8339576721191406,-0.00020528571621980518,-0.0005627993959933519,-6.739172386005521e-5
AHRS2,5320819,0.014780070632696152,0.03491293266415596,-0.7894616723060608,0,0,0
AHRS3,5320819,0.009518326260149479,0.015050294809043407,-0.8339576721191406,0,0,0,0,0,0,0
VFR_HUD,5320819,0,0.007507323287427425,312,0,3.179999828338623,0.019999999552965164
ATTITUDE,5321220,0.009586057625710964,0.015209180302917957,-0.8338894248008728,0.0002432990586385131,0.0011491491459310055,-0.0008665606728754938
AHRS2,5321220,0.014659794047474861,0.03507586196064949,-0.7894605994224548,0,0,0
AHRS3,5321220,0.009586057625710964,0.015209180302917957,-0.8338894248008728,0,0,0,0,0,0,0
VFR_HUD,5321220,0,0.006872131489217281,312,0,3.179999828338623,0.019999999552965164
HEARTBEAT,5321220,2,3,81,0,3,3
MISSION_ITEM_INT,5321220,252,1,7,3,16,0,1,0,0,0,0,474062028,85132295,150,0
ATTITUDE,5321622,0.00953297782689333,0.01534807588905096,-0.8338205814361572,0.00022901991906110197,0.00010876415763050318,0.0011027862783521414
AHRS2,5321622,0.014793791808187962,0.03516503795981407,-0.7894453406333923,0,0,0
AHRS3,5321622,0.00953297782689333,0.01534807588905096,-0.8338205814361572,0,0,0,0,0,0,0
VFR_HUD,5321622,0,0.006846658419817686,312,0,3.179999828338623,0.009999999776482582
MISSION_ITEM_INT,5321622,252,1,8,3,16,0,1,0,0,0,0,474069689,85139108,150,0
SYS_STATUS,5321622,56687663,39853103,56687663,507,86,18,96,0,0,0,0,0,0
POWER_STATUS,5321622,4840,70,4
MEMINFO,5321622,0,41488,39845892
MISSION_CURRENT,5321622,1
GPS_RAW_INT,5321622,0,1,0,0,-17000,9999,9999,0,0,0,33292384,65539,16842752,22,3137537536
NAV_CONTROLLER_OUTPUT,5321622,0.5450102090835571,0.8854849934577942,-47,0,0,-3.1869664192199707,0,0
SERVO_OUTPUT_RAW,5321622,1027015900,0,982,982,982,982,0,0,0,0,255,0,0,256,24576,64512,769,256
RC_CHANNELS_RAW,5321983,0,0,0,0,0,0,0,0,0,0
RC_CHANNELS,5321983,0,0,0,0,0,0,0,0,0,0,0,0,0,0,0,0,0,0,0,0
AHRS,5321983,-0.00022507774701807648,6.536416913149878e-5,0.00022780139988753945,0,0,0.0004898827173747122,0.008205823600292206
HWSTATUS,5321983,4840,0
BATTERY_STATUS,5321983,0,0,0,32767,65535,65535,65535,65535,65535,65535,65535,65535,65535,65535,18,311,-1,96,0,0
MOUNT_STATUS,5321983,0,0,-19,-102,4777
EKF_STATUS_REPORT,5321983,485,0,0.0012182578211650252,0.005423623602837324,0.008028354495763779,0.006221040152013302,nan
VIBRATION,5321983,5321983963,0.022067133337259293,0.023801816627383232,0.031914129853248596,0,0,0
GLOBAL_POSITION_INT,5322003,0,0,3180,3180,0,0,1,31224
ATTITUDE,5322023,0.009521657600998878,0.015444585122168064,-0.8337081670761108,0.0015246514230966568,-0.0004895064048469067,-0.003241194412112236
AHRS2,5322023,0.014920356683433056,0.03512289747595787,-0.7891818881034851,0,0,0
AHRS3,5322023,0.009521657600998878,0.015444585122168064,-0.8337081670761108,0,0,0,0,0,0,0
VFR_HUD,5322023,0,0.006980347912758589,312,0,3.179999828338623,0.009999999776482582
RAW_IMU,5322023,1027116057,17,2,-1053,0,0,-1,196,234,748
SCALED_IMU2,5322083,91,4,-890,1,0,-1,137,151,597
SCALED_IMU3,5322083,37,-2,-1008,-1,0,-1,348,-14,282
SCALED_PRESSURE,5322083,965.8342895507812,-0.3549218773841858,4957
SCALED_PRESSURE2,5322083,965.9285888671875,-0.10210937261581421,4446
HEARTBEAT,5322083,2,3,81,0,3,3
ATTITUDE,5322425,0.009572550654411316,0.015366039238870144,-0.8335495591163635,0.0014852965250611305,-0.0005525505403056741,-0.0001500612561358139
AHRS2,5322425,0.01488419994711876,0.0351581797003746,-0.7891238927841187,0,0,0
AHRS3,5322425,0.009572550654411316,0.015366039238870144,-0.8335495591163635,0,0,0,0,0,0,0
VFR_HUD,5322425,0,0.005913961213082075,312,0,3.179999828338623,0.009999999776482582
MISSION_ITEM_INT,5322425,252,1,9,3,16,0,1,0,0,0,0,474072738,85127735,150,0
MISSION_ITEM_INT,5322425,252,1,10,3,16,0,1,0,0,0,0,474068236,85123228,130,0
ATTITUDE,5322827,0.009616675786674023,0.015275548212230206,-0.833694338798523,-0.0018601997289806604,-0.0007173176854848862,3.170143463648856e-5
AHRS2,5322827,0.014996160753071308,0.03520439192652702,-0.789257824420929,0,0,0
AHRS3,5322827,0.009616675786674023,0.015275548212230206,-0.833694338798523,0,0,0,0,0,0,0
VFR_HUD,5322827,0,0.00770833482965827,312,0,3.169999837875366,0.009999999776482582
MISSION_ITEM_INT,5322827,252,1,11,3,16,0,1,0,0,0,0,474060031,85117650,70,0
ATTITUDE,5323230,0.009620518423616886,0.015250316821038723,-0.8335654735565186,0.00031107556424103677,0.0007863243808969855,0.0012886825716122985
AHRS2,5323230,0.015018826350569725,0.035228315740823746,-0.7893000245094299,0,0,0
AHRS3,5323230,0.009620518423616886,0.015250316821038723,-0.8335654735565186,0,0,0,0,0,0,0
VFR_HUD,5323230,0,0.00726930471137166,312,0,3.1499998569488525,0
MISSION_ITEM_INT,5323230,252,1,12,3,16,0,1,0,0,0,0,474056183,85112178,60,0
HEARTBEAT,5323230,2,3,81,0,3,3
GLOBAL_POSITION_INT,5323331,0,0,3150,3150,0,0,0,31225
MISSION_ITEM_INT,5323331,252,1,13,3,16,0,1,0,0,0,0,474050991,85111481,50,0
MISSION_ITEM_INT,5323331,252,1,14,3,16,0,1,0,0,0,0,474059886,85125268,50,22
SYS_STATUS,5323331,56687663,39853103,56687663,511,87,20,96,0,0,0,0,0,0
POWER_STATUS,5323331,4880,70,4
MEMINFO,5323331,0,41488,39845892
MISSION_CURRENT,5323331,1
GPS_RAW_INT,5323331,0,1,0,0,-17000,9999,9999,0,0,0,33292384,369164291,0,44565254,1448232275
NAV_CONTROLLER_OUTPUT,5323331,0.5486117601394653,0.8594737648963928,-47,0,0,-3.1357951164245605,0,0
SERVO_OUTPUT_RAW,5323331,1029028144,0,982,982,982,982,0,0,0,0,255,0,0,256,24576,64512,769,256
RC_CHANNELS_RAW,5323995,0,0,0,0,0,0,0,0,0,0
RC_CHANNELS,5323995,0,0,0,0,0,0,0,0,0,0,0,0,0,0,0,0,0,0,0,0
AHRS,5323995,-0.00022538589837495238,6.578733882633969e-5,0.00022809077927377075,0,0,0.0008349604322575033,0.007204475812613964
HWSTATUS,5323995,4880,0
BATTERY_STATUS,5323995,0,0,0,32767,65535,65535,65535,65535,65535,65535,65535,65535,65535,65535,20,311,-1,96,0,0
MOUNT_STATUS,5323995,0,0,-17,-100,4776
EKF_STATUS_REPORT,5323995,485,0,0.0013299286365509033,0.007974822074174881,0.003988053649663925,3.290058157290332e-5,nan
VIBRATION,5323995,5323996270,0.023619411513209343,0.01909184642136097,0.03128013014793396,0,0,0
MISSION_ITEM_INT,5323995,252,1,15,0,20,0,1,0,0,0,0,0,0,0,0
ATTITUDE,5324035,0.009604585357010365,0.014977301470935345,-0.8334547281265259,0.0009684787946753204,-0.0011667391518130898,-8.635863196104765e-5
AHRS2,5324035,0.014927423559129238,0.03539816290140152,-0.7891440987586975,0,0,0
AHRS3,5324035,0.009604585357010365,0.014977301470935345,-0.8334547281265259,0,0,0,0,0,0,0
VFR_HUD,5324035,0,0.009260413236916065,312,0,3.129999876022339,0
RAW_IMU,5324035,1029127938,20,1,-1055,0,-1,-1,194,237,745
SCALED_IMU2,5324095,98,-3,-901,3,-3,0,137,151,595
SCALED_IMU3,5324095,40,-3,-1008,0,0,0,356,-15,279
SCALED_PRESSURE,5324095,965.8362426757812,-0.3529687523841858,4958
SCALED_PRESSURE2,5324095,965.9261474609375,-0.10453125089406967,4446
HEARTBEAT,5324095,2,3,81,0,3,3
ATTITUDE,5324437,0.009588210843503475,0.014844349585473537,-0.8335458040237427,0.0019960864447057247,-0.0006865643663331866,-0.0008173423120751977
AHRS2,5324437,0.014903733506798744,0.035399869084358215,-0.7896152138710022,0,0,0
AHRS3,5324437,0.009588210843503475,0.014844349585473537,-0.8335458040237427,0,0,0,0,0,0,0
VFR_HUD,5324437,0,0.01188993826508522,312,0,3.129999876022339,0
GLOBAL_POSITION_INT,5324659,0,0,3130,3130,1,0,0,31225
ATTITUDE,5324839,0.00955541618168354,0.014753472991287708,-0.8332981467247009,0.00011883581464644521,-0.0027556014247238636,0.0019836975261569023
AHRS2,5324839,0.014872993342578411,0.03546590730547905,-0.7892357707023621,0,0,0
AHRS3,5324839,0.00955541618168354,0.014753472991287708,-0.8332981467247009,0,0,0,0,0,0,0
VFR_HUD,5324839,0,0.012245532125234604,312,0,3.129999876022339,0
ATTITUDE,5325240,0.00961475819349289,0.014930513687431812,-0.833280622959137,0.00010112839663634077,0.0013515723403543234,-0.00040169156272895634
AHRS2,5325240,0.014822376891970634,0.03575875610113144,-0.7892465591430664,0,0,0
AHRS3,5325240,0.00961475819349289,0.014930513687431812,-0.833280622959137,0,0,0,0,0,0,0
VFR_HUD,5325240,0,0.013626930303871632,312,0,3.1399998664855957,0
HEARTBEAT,5325240,2,3,81,0,3,3
ATTITUDE,5325641,0.009479024447500706,0.015018529258668423,-0.8334122896194458,-0.0019165509147569537,-0.0003866931365337223,0.0009508650400675833
AHRS2,5325641,0.014720321632921696,0.0358007550239563,-0.789499819278717,0,0,0
AHRS3,5325641,0.009479024447500706,0.015018529258668423,-0.8334122896194458,0,0,0,0,0,0,0
VFR_HUD,5325641,0,0.014198657125234604,312,0,3.1499998569488525,0.009999999776482582
GLOBAL_POSITION_INT,5325983,0,0,3150,3150,1,0,1,31225
SYS_STATUS,5325983,56687663,39853103,56687663,501,87,21,96,0,0,0,0,0,0
POWER_STATUS,5325983,4850,70,4
MEMINFO,5325983,0,41488,39845892
MISSION_CURRENT,5325983,1
GPS_RAW_INT,5325983,0,1,0,0,-17000,9999,9999,0,0,0,96,0,0,44565254,1448232275
NAV_CONTROLLER_OUTPUT,5325983,0.5406812429428101,0.8583218455314636,-47,0,0,-3.157252073287964,0,0
SERVO_OUTPUT_RAW,5325983,1031037134,0,982,982,982,982,0,0,0,0,255,0,0,256,24576,0,0,0
RC_CHANNELS_RAW,5326004,0,0,0,0,0,0,0,0,0,0
RC_CHANNELS,5326004,0,0,0,0,0,0,0,0,0,0,0,0,0,0,0,0,0,0,0,0
AHRS,5326004,-0.00022489458206109703,6.623083027079701e-5,0.00022686760348733515,0,0,0.0004281048895791173,0.009727983735501766
HWSTATUS,5326004,4888,0
BATTERY_STATUS,5326004,0,0,0,32767,65535,65535,65535,65535,65535,65535,65535,65535,65535,65535,21,311,-1,96,0,0
MOUNT_STATUS,5326004,0,0,-17,-99,4775
EKF_STATUS_REPORT,5326004,485,0,0.002344853011891246,0.002075854456052184,0.01716180332005024,0.004224068019539118,nan
VIBRATION,5326004,5326005041,0.019105475395917892,0.02062646858394146,0.03136186674237251,0,0,0
ATTITUDE,5326043,0.009421134367585182,0.014970547519624233,-0.8334192037582397,-0.0007796148420311511,8.947977039497346e-5,-0.00016743983724154532
AHRS2,5326043,0.014536715112626553,0.03583856299519539,-0.7896077036857605,0,0,0
AHRS3,5326043,0.009421134367585182,0.014970547519624233,-0.8334192037582397,0,0,0,0,0,0,0
VFR_HUD,5326043,0,0.014216224662959576,312,0,3.1499998569488525,0.009999999776482582
RAW_IMU,5326043,1031136399,20,1,-1053,0,0,-1,194,230,750
SCALED_IMU2,5326103,90,10,-874,1,-3,-1,137,152,597
SCALED_IMU3,5326104,40,-4,-1007,0,0,0,347,-13,282
SCALED_PRESSURE,5326104,965.849365234375,-0.33984375,4957
SCALED_PRESSURE2,5326104,965.912841796875,-0.11781249940395355,4446
HEARTBEAT,5326104,2,3,81,0,3,3
ATTITUDE,5326449,0.009355872869491577,0.015041771344840527,-0.833448588848114,0.001766512868925929,-0.00018251223082188517,0.0008898351807147264
AHRS2,5326449,0.014507031068205833,0.03570875898003578,-0.789679229259491,0,0,0
AHRS3,5326449,0.009355872869491577,0.015041771344840527,-0.833448588848114,0,0,0,0,0,0,0
VFR_HUD,5326449,0,0.016142336651682854,312,0,3.1499998569488525,0
ATTITUDE,5326850,0.009406470693647861,0.01519040483981371,-0.8333603143692017,0.0007429981487803161,-0.00013554850011132658,0.0016127830604091287
AHRS2,5326850,0.014509052969515324,0.035617053508758545,-0.7894416451454163,0,0,0
AHRS3,5326850,0.009406470693647861,0.01519040483981371,-0.8333603143692017,0,0,0,0,0,0,0
VFR_HUD,5326850,0,0.01609128527343273,312,0,3.1499998569488525,0
ATTITUDE,5327252,0.009419112466275692,0.015170439146459103,-0.8334580659866333,0.00030333586619235575,-0.0011850896989926696,-0.0014359891647472978
AHRS2,5327252,0.014507093466818333,0.03540889173746109,-0.7894359827041626,0,0,0
AHRS3,5327252,0.009419112466275692,0.015170439146459103,-0.8334580659866333,0,0,0,0,0,0,0
VFR_HUD,5327252,0,0.015375781804323196,312,0,3.1499998569488525,0
GLOBAL_POSITION_INT,5327312,0,0,3150,3150,0,-1,0,31225
AHRS3,5327312,0.009451854042708874,0.0152014484629035,-0.833392322063446,0,0,0,0,0,0,0
ATTITUDE,5327553,0.009504389017820358,0.015192062593996525,-0.8333655595779419,0.0010036779567599297,-0.0009046743507497013,0.0011360557982698083
AHRS2,5327553,0.014418534934520721,0.035223521292209625,-0.7896178960800171,0,0,0
AHRS3,5327553,0.009504389017820358,0.015192062593996525,-0.8333655595779419,0,0,0,0,0,0,0
VFR_HUD,5327553,0,0.015302686020731926,312,0,3.1599998474121094,0
GLOBAL_POSITION_INT,5327633,0,0,3160,3160,0,-1,0,31226
ATTITUDE,5327653,0.009446369484066963,0.015281164087355137,-0.833293080329895,-0.002925134962424636,7.387158984784037e-5,0.001503745443187654
AHRS2,5327653,0.014304074458777905,0.035168979316949844,-0.7895524501800537,0,0,0
AHRS3,5327653,0.009446369484066963,0.015281164087355137,-0.833293080329895,0,0,0,0,0,0,0
VFR_HUD,5327653,0,0.015107795596122742,312,0,3.1599998474121094,0
ATTITUDE,5327754,0.009427700191736221,0.015298771671950817,-0.833234429359436,-0.0006616984028369188,0.0004243718576617539,0.0006573061691597104
AHRS2,5327754,0.01426892913877964,0.03523683920502663,-0.7894893288612366,0,0,0
AHRS3,5327754,0.009427700191736221,0.015298771671950817,-0.833234429359436,0,0,0,0,0,0,0
VFR_HUD,5327754,0,0.014419511891901493,312,0,3.1599998474121094,0
ATTITUDE,5327854,0.009432762861251831,0.015252302400767803,-0.8331635594367981,-0.00034155300818383694,-0.0003377688699401915,0.00037674594204872847
AHRS2,5327854,0.014321197755634785,0.03524482250213623,-0.7895364165306091,0,0,0
AHRS3,5327854,0.009432762861251831,0.015252302400767803,-0.8331635594367981,0,0,0,0,0,0,0
VFR_HUD,5327854,0,0.014545166864991188,312,0,3.1599998474121094,0
GLOBAL_POSITION_INT,5327954,0,0,3160,3160,0,-1,0,31227
ATTITUDE,5327954,0.009358834475278854,0.015333647839725018,-0.8331068754196167,-0.0011558852856978774,-0.0005022393888793886,0.0008762468351051211
AHRS2,5327954,0.014295097440481186,0.03524519503116608,-0.7895182967185974,0,0,0
AHRS3,5327954,0.009358834475278854,0.015333647839725018,-0.8331068754196167,0,0,0,0,0,0,0
VFR_HUD,5327954,0,0.01432470791041851,312,0,3.1599998474121094,0
SYS_STATUS,5327954,56687663,39853103,56687663,508,78,20,96,0,0,0,0,0,0
POWER_STATUS,5327954,4854,70,4
MEMINFO,5327954,0,41488,39845892
MISSION_CURRENT,5327954,1
GPS_RAW_INT,5327954,0,1,0,0,-17000,9999,9999,0,0,0,96,0,1363804160,456492288,2033696572
NAV_CONTROLLER_OUTPUT,5327954,0.537688136100769,0.8833940029144287,-47,0,0,-3.1663906574249268,0,0
SERVO_OUTPUT_RAW,5327954,1033047708,0,982,982,982,982,0,0,0,0,255,0,0,256,24576,0,0,0
RC_CHANNELS_RAW,5328015,0,0,0,0,0,0,0,0,0,0
RC_CHANNELS,5328015,0,0,0,0,0,0,0,0,0,0,0,0,0,0,0,0,0,0,0,0
AHRS,5328015,-0.00022448317031376064,6.727453001076356e-5,0.00022644491400569677,0,0,0.0004566616553347558,0.005475356709212065
HWSTATUS,5328015,4856,0
BATTERY_STATUS,5328015,0,0,0,32767,65535,65535,65535,65535,65535,65535,65535,65535,65535,65535,20,311,-1,96,0,0
MOUNT_STATUS,5328015,0,0,-19,-101,4773
EKF_STATUS_REPORT,5328015,485,0,0.002834595972672105,0.011838037520647049,0.006882296409457922,0.006920380983501673,nan
VIBRATION,5328015,5328015491,0.020830867812037468,0.017136335372924805,0.03028499335050583,0,0,0
ATTITUDE,5328054,0.009342540986835957,0.01542226318269968,-0.8330456018447876,-0.0007636738009750843,-0.0002810057776514441,-0.0006747129373252392
AHRS2,5328054,0.014258582144975662,0.03515396639704704,-0.789553165435791,0,0,0
AHRS3,5328054,0.009342540986835957,0.01542226318269968,-0.8330456018447876,0,0,0,0,0,0,0
VFR_HUD,5328054,0,0.013598923571407795,312,0,3.1599998474121094,0
RAW_IMU,5328054,1033147817,19,0,-1051,1,0,0,196,230,744
SCALED_IMU2,5328115,91,0,-877,1,-2,0,137,152,598
SCALED_IMU3,5328115,40,-4,-1007,0,0,1,341,-18,285
SCALED_PRESSURE,5328115,965.8345336914062,-0.35468748211860657,4958
SCALED_PRESSURE2,5328115,965.9285888671875,-0.10210937261581421,4446
ATTITUDE,5328155,0.009363618679344654,0.015464565716683865,-0.8329892754554749,-0.0013740182621404529,-0.0007845044019632041,-0.0005018722149543464
AHRS2,5328155,0.01427462324500084,0.03508240729570389,-0.7894800901412964,0,0,0
AHRS3,5328155,0.009363618679344654,0.015464565716683865,-0.8329892754554749,0,0,0,0,0,0,0
VFR_HUD,5328155,0,0.013739661313593388,312,0,3.1599998474121094,0
ATTITUDE,5328255,0.009378517977893353,0.015522806905210018,-0.8329830169677734,0.000866579997818917,0.0004433262220118195,-0.00048136262921616435
AHRS2,5328255,0.014276377856731415,0.03520037978887558,-0.7894692420959473,0,0,0
AHRS3,5328255,0.009378517977893353,0.015522806905210018,-0.8329830169677734,0,0,0,0,0,0,0
VFR_HUD,5328255,0,0.01292030606418848,312,0,3.1599998474121094,0
GLOBAL_POSITION_INT,5328275,0,0,3160,3160,0,-1,0,31228
HEARTBEAT,5328275,2,3,81,0,3,3
ATTITUDE,5328356,0.009358142502605915,0.015530559234321117,-0.8330268859863281,-0.0024773681070655584,-0.0011597516713663936,-0.0010158880613744259
AHRS2,5328356,0.014265048317611217,0.035085707902908325,-0.7895414233207703,0,0,0
AHRS3,5328356,0.009358142502605915,0.015530559234321117,-0.8330268859863281,0,0,0,0,0,0,0
VFR_HUD,5328356,0,0.0119229257106781,312,0,3.1599998474121094,0
ATTITUDE,5328456,0.00936136394739151,0.015522926114499569,-0.8330518007278442,0.0005262665217742324,-0.0009374402579851449,-0.0007365633500739932
AHRS2,5328456,0.014219707809388638,0.03512401133775711,-0.7895508408546448,0,0,0
AHRS3,5328456,0.00936136394739151,0.015522926114499569,-0.8330518007278442,0,0,0,0,0,0,0
VFR_HUD,5328456,0,0.010976368561387062,312,0,3.1599998474121094,0
SYS_STATUS,5328456,56687663,39853103,56687663,470,87,22,96,0,0,0,0,0,0
POWER_STATUS,5328456,4891,67,4
MEMINFO,5328456,0,41488,39845892
MISSION_CURRENT,5328456,1
GPS_RAW_INT,5328456,0,1,0,0,-17000,9999,9999,0,0,0,96,0,0,456492288,2033696572
NAV_CONTROLLER_OUTPUT,5328456,0.5400462746620178,0.8913509845733643,-47,0,0,-3.1667726039886475,0,0
SERVO_OUTPUT_RAW,5328456,1033549239,0,982,982,982,982,0,0,0,0,255,0,0,256,24576,0,0,0
RC_CHANNELS_RAW,5328516,0,0,0,0,0,0,0,0,0,0
RC_CHANNELS,5328516,0,0,0,0,0,0,0,0,0,0,0,0,0,0,0,0,0,0,0,0
AHRS,5328516,-0.00022399563749786466,6.74502007314004e-5,0.00022601173259317875,0,0,0.000516625412274152,0.0027242370415478945
HWSTATUS,5328516,4891,0
BATTERY_STATUS,5328516,0,0,0,32767,65535,65535,65535,65535,65535,65535,65535,65535,65535,65535,22,311,-1,96,0,0
MOUNT_STATUS,5328516,0,0,-19,-102,4773
EKF_STATUS_REPORT,5328516,485,0,0.0026957655791193247,0.0008298698230646551,0.004532556049525738,0.004959498066455126,nan
VIBRATION,5328516,5328517363,0.018625430762767792,0.019764412194490433,0.028534676879644394,0,0,0
ATTITUDE,5328557,0.009382657706737518,0.015566506423056126,-0.8330219984054565,-0.0009772484190762043,-4.0681316022528335e-6,-0.0002274455182487145
AHRS2,5328557,0.014161798171699047,0.03514857217669487,-0.789490818977356,0,0,0
AHRS3,5328557,0.009382657706737518,0.015566506423056126,-0.8330219984054565,0,0,0,0,0,0,0
VFR_HUD,5328557,0,0.010431498289108276,312,0,3.1599998474121094,0
GLOBAL_POSITION_INT,5328597,0,0,3160,3160,0,0,0,31228
RAW_IMU,5328597,1033649647,18,0,-1052,-1,-1,0,198,230,746
SCALED_IMU2,5328616,91,-5,-882,-6,-2,3,137,153,596
SCALED_IMU3,5328616,39,-5,-1007,-2,-1,0,345,-14,282
SCALED_PRESSURE,5328616,965.8375854492188,-0.35164061188697815,4957
SCALED_PRESSURE2,5328616,965.91015625,-0.1205468699336052,4445
ATTITUDE,5328657,0.009492604061961174,0.015596899203956127,-0.8329606652259827,0.004048158880323172,0.0007257271790876985,-0.0006567147793248296
AHRS2,5328657,0.014171726070344448,0.03511955589056015,-0.7893782258033752,0,0,0
AHRS3,5328657,0.009492604061961174,0.015596899203956127,-0.8329606652259827,0,0,0,0,0,0,0
VFR_HUD,5328657,0,0.009609426371753216,312,0,3.1599998474121094,0
ATTITUDE,5328756,0.009530983865261078,0.015559378080070019,-0.8328710198402405,0.0013544734101742506,-0.0014616025146096945,2.3701901227468625e-5
AHRS2,5328756,0.014207453466951847,0.03506176546216011,-0.7893142700195312,0,0,0
AHRS3,5328756,0.009530983865261078,0.015559378080070019,-0.8328710198402405,0,0,0,0,0,0,0
VFR_HUD,5328756,0,0.00941159762442112,312,0,3.1599998474121094,0
ATTITUDE,5328856,0.0095269326120615,0.015607611276209354,-0.8328054547309875,0.0009053470566868782,0.00093638407997787,-0.0006196220638230443
AHRS2,5328856,0.014138181693851948,0.035051170736551285,-0.7893494963645935,0,0,0
AHRS3,5328856,0.0095269326120615,0.015607611276209354,-0.8328054547309875,0,0,0,0,0,0,0
VFR_HUD,5328856,0,0.008043190464377403,312,0,3.1499998569488525,0.009999999776482582
GLOBAL_POSITION_INT,5328916,0,0,3150,3150,0,0,1,31229
ATTITUDE,5328957,0.009480009786784649,0.015624028630554676,-0.8327555656433105,9.702135866973549e-5,0.0006081028841435909,0.0001827828964451328
AHRS2,5328957,0.014146958477795124,0.035082899034023285,-0.7891172170639038,0,0,0
AHRS3,5328957,0.009480009786784649,0.015624028630554676,-0.8327555656433105,0,0,0,0,0,0,0
VFR_HUD,5328957,0,0.007386079058051109,312,0,3.1499998569488525,0.009999999776482582
SYS_STATUS,5328957,56687663,39853103,56687663,494,79,19,96,0,0,0,0,0,0
POWER_STATUS,5328957,4877,65,4
MEMINFO,5328957,0,41488,39845892
MISSION_CURRENT,5328957,1
GPS_RAW_INT,5328957,0,1,0,0,-17000,9999,9999,0,0,0,96,0,0,456492288,2033696572
NAV_CONTROLLER_OUTPUT,5328957,0.5435776710510254,0.8986725211143494,-47,0,0,-3.154865264892578,0,0
SERVO_OUTPUT_RAW,5328957,1034049778,0,982,982,982,982,0,0,0,0,255,0,0,256,24576,0,0,0
RC_CHANNELS_RAW,5329017,0,0,0,0,0,0,0,0,0,0
RC_CHANNELS,5329017,0,0,0,0,0,0,0,0,0,0,0,0,0,0,0,0,0,0,0,0
AHRS,5329017,-0.00022216593788471073,6.719007069477811e-5,0.00022430076205637306,0,0,0.0007862601196393371,0.007010780740529299
HWSTATUS,5329017,4877,0
BATTERY_STATUS,5329017,0,0,0,32767,65535,65535,65535,65535,65535,65535,65535,65535,65535,65535,19,311,-1,96,0,0
MOUNT_STATUS,5329017,0,0,-20,-103,4772
EKF_STATUS_REPORT,5329017,485,0,0.0023503878619521856,0.013698760420084,0.006265950854867697,0.0009602881036698818,nan
VIBRATION,5329017,5329017600,0.019438957795500755,0.021651599556207657,0.02976396679878235,0,0,0
ATTITUDE,5329057,0.009476595558226109,0.015718068927526474,-0.8326942920684814,-0.0004467210965231061,0.0010344027541577816,0.0007241549319587648
AHRS2,5329057,0.014157176949083805,0.0351063534617424,-0.789226233959198,0,0,0
AHRS3,5329057,0.009476595558226109,0.015718068927526474,-0.8326942920684814,0,0,0,0,0,0,0
VFR_HUD,5329057,0,0.006032067351043224,312,0,3.1499998569488525,0
RAW_IMU,5329057,1034149809,19,0,-1054,0,0,0,197,234,746
SCALED_IMU2,5329117,99,9,-882,0,-1,1,138,152,599
SCALED_IMU3,5329117,38,-5,-1007,-2,0,1,351,-16,283
SCALED_PRESSURE,5329117,965.8198852539062,-0.3692968785762787,4957
SCALED_PRESSURE2,5329117,965.92333984375,-0.10734374821186066,4446
ATTITUDE,5329157,0.009476431645452976,0.015764538198709488,-0.8326612710952759,-0.00025952543364837766,0.0006614356534555554,-0.00031468039378523827
AHRS2,5329157,0.014169728383421898,0.03516117110848427,-0.789332926273346,0,0,0
AHRS3,5329157,0.009476431645452976,0.015764538198709488,-0.8326612710952759,0,0,0,0,0,0,0
VFR_HUD,5329157,0,0.004716820083558559,312,0,3.1499998569488525,0
GLOBAL_POSITION_INT,5329237,0,0,3150,3150,0,0,1,31229
ATTITUDE,5329257,0.00951724499464035,0.015780780464410782,-0.8327024579048157,0.0010588052682578564,0.0008465329883620143,-0.0006718463846482337
AHRS2,5329257,0.014253141358494759,0.03510657325387001,-0.7893186807632446,0,0,0
AHRS3,5329257,0.00951724499464035,0.015780780464410782,-0.8327024579048157,0,0,0,0,0,0,0
VFR_HUD,5329257,0,0.00357041135430336,312,0,3.1499998569488525,0.009999999776482582
HEARTBEAT,5329257,2,3,81,0,3,3
ATTITUDE,5329358,0.009579477831721306,0.015803061425685883,-0.8326863050460815,0.002617774996906519,0.0016538710333406925,-0.0003775696677621454
AHRS2,5329358,0.014409353956580162,0.03496865555644035,-0.7893893718719482,0,0,0
AHRS3,5329358,0.009579477831721306,0.015803061425685883,-0.8326863050460815,0,0,0,0,0,0,0
VFR_HUD,5329358,0,0.0025603703688830137,312,0,3.1499998569488525,0.009999999776482582
ATTITUDE,5329458,0.009542685002088547,0.01575426384806633,-0.832615315914154,0.00040322987479157746,-0.0005419459193944931,-0.00042471347842365503
AHRS2,5329458,0.014365269802510738,0.03485787287354469,-0.7892100811004639,0,0,0
AHRS3,5329458,0.009542685002088547,0.01575426384806633,-0.832615315914154,0,0,0,0,0,0,0
VFR_HUD,5329458,0,0.0020952888298779726,312,0,3.1499998569488525,0.009999999776482582
SYS_STATUS,5329458,56687663,39853103,56687663,473,89,20,96,0,0,0,0,0,0
POWER_STATUS,5329458,4891,67,4
MEMINFO,5329458,0,41488,39845892
MISSION_CURRENT,5329458,1
GPS_RAW_INT,5329458,0,1,0,0,-17000,9999,9999,0,0,0,96,0,0,456492288,2033696572
NAV_CONTROLLER_OUTPUT,5329458,0.5454337000846863,0.9039558172225952,-47,0,0,-3.156775712966919,0,0
SERVO_OUTPUT_RAW,5329458,1034550912,0,982,982,982,982,0,0,0,0,255,0,0,256,24576,0,0,0
RC_CHANNELS_RAW,5329518,0,0,0,0,0,0,0,0,0,0
RC_CHANNELS,5329518,0,0,0,0,0,0,0,0,0,0,0,0,0,0,0,0,0,0,0,0
AHRS,5329518,-0.00022182318207342178,6.732226756867021e-5,0.00022412909311242402,0,0,0.00095695088384673,0.007342258468270302
HWSTATUS,5329518,4891,0
BATTERY_STATUS,5329518,0,0,0,32767,65535,65535,65535,65535,65535,65535,65535,65535,65535,65535,20,311,-1,96,0,0
MOUNT_STATUS,5329518,0,0,-20,-103,4771
EKF_STATUS_REPORT,5329518,485,0,0.0017730050021782517,0.004506198223680258,0.004047728609293699,0.003207150148227811,nan
VIBRATION,5329518,5329519035,0.01969522424042225,0.020244093611836433,0.030532818287611008,0,0,0
GLOBAL_POSITION_INT,5329558,0,0,3150,3150,0,0,1,31230
ATTITUDE,5329558,0.009586802683770657,0.01580044813454151,-0.8325501680374146,0.001832747831940651,0.0006453052628785372,0.000797366548795253
AHRS2,5329558,0.014364222064614296,0.03494996950030327,-0.7891387343406677,0,0,0
AHRS3,5329558,0.009586802683770657,0.01580044813454151,-0.8325501680374146,0,0,0,0,0,0,0
VFR_HUD,5329558,0,0.000752513122279197,312,0,3.1499998569488525,0.009999999776482582
RAW_IMU,5329558,1034651316,18,0,-1055,1,0,-1,198,235,750
SCALED_IMU2,5329618,90,-2,-882,5,0,-1,138,153,594
SCALED_IMU3,5329618,38,-5,-1008,2,0,-2,354,-65,284
SCALED_PRESSURE,5329618,965.8770141601562,-0.3121874928474426,4958
SCALED_PRESSURE2,5329618,965.9136352539062,-0.11703124642372131,4445
ATTITUDE,5329659,0.009602288715541363,0.01578551158308983,-0.8325256705284119,0.00016342120943591,-0.0007382367039099336,2.016759754042141e-5
AHRS2,5329659,0.014301339164376259,0.034930452704429626,-0.789225697517395,0,0,0
AHRS3,5329659,0.009602288715541363,0.01578551158308983,-0.8325256705284119,0,0,0,0,0,0,0
VFR_HUD,5329659,0,0.0017256280407309532,312,0,3.1499998569488525,0.009999999776482582
ATTITUDE,5329760,0.009629908949136734,0.015794813632965088,-0.8325306177139282,0.0017801517387852073,-0.00020076442160643637,-0.0006449595675803721
AHRS2,5329760,0.01429364737123251,0.034993015229701996,-0.7891709804534912,0,0,0
AHRS3,5329760,0.009629908949136734,0.015794813632965088,-0.8325306177139282,0,0,0,0,0,0,0
VFR_HUD,5329760,0,0.001587582635693252,312,0,3.1499998569488525,0.009999999776482582
ATTITUDE,5329860,0.00963233970105648,0.01592213287949562,-0.8325947523117065,-0.0011266306973993778,0.0009315196657553315,-0.0002653720148373395
AHRS2,5329860,0.014300955459475517,0.03501027449965477,-0.7892661690711975,0,0,0
AHRS3,5329860,0.00963233970105648,0.01592213287949562,-0.8325947523117065,0,0,0,0,0,0,0
VFR_HUD,5329860,0,0.0021717289928346872,312,0,3.1499998569488525,0.009999999776482582
GLOBAL_POSITION_INT,5329880,0,0,3150,3150,0,0,1,31230
ATTITUDE,5329960,0.009606724604964256,0.015859249979257584,-0.832571268081665,-0.000315822777338326,-0.0007241509156301618,-0.0002191858657170087
AHRS2,5329960,0.01436583697795868,0.034840479493141174,-0.7892333269119263,0,0,0
AHRS3,5329960,0.009606724604964256,0.015859249979257584,-0.832571268081665,0,0,0,0,0,0,0
VFR_HUD,5329960,0,0.0028153809253126383,312,0,3.1499998569488525,0.009999999776482582
SYS_STATUS,5329960,56687663,39853103,56687663,495,81,19,96,0,0,0,0,0,0
POWER_STATUS,5329960,4882,67,4
MEMINFO,5329960,0,41488,39845892
MISSION_CURRENT,5329960,1
GPS_RAW_INT,5329960,0,1,0,0,-17000,9999,9999,0,0,0,96,0,0,456492288,2033696572
NAV_CONTROLLER_OUTPUT,5329960,0.5498104095458984,0.9069585204124451,-47,0,0,-3.1481454372406006,0,0
SERVO_OUTPUT_RAW,5329960,1035053427,0,982,982,982,982,0,0,0,0,255,0,0,256,24576,0,0,0
RC_CHANNELS_RAW,5330020,0,0,0,0,0,0,0,0,0,0
RC_CHANNELS,5330020,0,0,0,0,0,0,0,0,0,0,0,0,0,0,0,0,0,0,0,0
AHRS,5330020,-0.000227885102503933,6.931757525308058e-5,0.00023041205713525414,0,0,0.000915657845325768,0.005530749447643757
HWSTATUS,5330020,4882,0
BATTERY_STATUS,5330020,0,0,0,32767,65535,65535,65535,65535,65535,65535,65535,65535,65535,65535,19,311,-1,96,0,0
MOUNT_STATUS,5330020,0,0,-20,-104,4770
EKF_STATUS_REPORT,5330020,485,0,0.0009750177268870175,0.006400090176612139,0.0015576016157865524,0.00015257667109835893,nan
VIBRATION,5330020,5330021429,0.020578980445861816,0.01911410130560398,0.027415188029408455,0,0,0
ATTITUDE,5330060,0.009617992676794529,0.015757771208882332,-0.8325039744377136,0.0009913081303238869,-0.0019805768970400095,-0.00019977496413048357
AHRS2,5330060,0.014344208873808384,0.03473934531211853,-0.7892035245895386,0,0,0
AHRS3,5330060,0.009617992676794529,0.015757771208882332,-0.8325039744377136,0,0,0,0,0,0,0
VFR_HUD,5330060,0,0.002731380518525839,312,0,3.1399998664855957,0
RAW_IMU,5330060,1035153107,20,1,-1053,0,0,-1,196,231,751
SCALED_IMU2,5330120,105,5,-887,6,0,1,137,152,596
SCALED_IMU3,5330120,40,-4,-1006,0,0,-1,347,-18,281
SCALED_PRESSURE,5330120,965.8592529296875,-0.3299218714237213,4957
SCALED_PRESSURE2,5330120,965.91357421875,-0.11710937321186066,4446
ATTITUDE,5330161,0.009636146016418934,0.01569073088467121,-0.8324848413467407,-4.890391937806271e-5,-0.0012768321903422475,0.00030996103305369616
AHRS2,5330161,0.014459434896707535,0.034661125391721725,-0.7892206907272339,0,0,0
AHRS3,5330161,0.009636146016418934,0.01569073088467121,-0.8324848413467407,0,0,0,0,0,0,0
